{"type":"FeatureCollection", "features": [
{"type":"Feature","geometry":{"type":"Point","coordinates":[-64.36064872797206,45.08993867678435]},"properties":{"FEAT_CODE":"DLBNMU40","FEAT_DESC":"BOUNDARY MUNICIPAL polygon","NAME":"Town of Wolfville","Shape_Leng":18083.6723298,"Shape_Area":6704636.89055}},
{"type":"Feature","geometry":{"type":"Point","coordinates":[-64.1342292313409,44.98538501427777]},"properties":{"FEAT_CODE":"DLBNMU40","FEAT_DESC":"BOUNDARY MUNICIPAL polygon","NAME":"Town of Windsor","Shape_Leng":15556.5204104,"Shape_Area":9253367.5141}},
{"type":"Feature","geometry":{"type":"Point","coordinates":[-65.07303115291141,44.944884697040706]},"properties":{"FEAT_CODE":"DLBNMU40","FEAT_DESC":"BOUNDARY MUNICIPAL polygon","NAME":"Town of Middleton","Shape_Leng":12848.590774,"Shape_Area":5528121.03405}},
{"type":"Feature","geometry":{"type":"Point","coordinates":[-64.51655774403423,45.07194856178749]},"properties":{"FEAT_CODE":"DLBNMU40","FEAT_DESC":"BOUNDARY MUNICIPAL polygon","NAME":"Town of Kentville","Shape_Leng":33635.0066091,"Shape_Area":17258519.3852}},
{"type":"Feature","geometry":{"type":"Point","coordinates":[-64.18167356086181,45.06351365389803]},"properties":{"FEAT_CODE":"DLBNMU40","FEAT_DESC":"BOUNDARY MUNICIPAL polygon","NAME":"Town of Hantsport","Shape_Leng":7352.02310553,"Shape_Area":1889535.86874}},
{"type":"Feature","geometry":{"type":"Point","coordinates":[-65.76148300788063,44.62424396134346]},"properties":{"FEAT_CODE":"DLBNMU40","FEAT_DESC":"BOUNDARY MUNICIPAL polygon","NAME":"Town of Digby","Shape_Leng":10690.3574435,"Shape_Area":2957970.26443}},
{"type":"Feature","geometry":{"type":"Point","coordinates":[-65.28442641078082,44.842478083104076]},"properties":{"FEAT_CODE":"DLBNMU40","FEAT_DESC":"BOUNDARY MUNICIPAL polygon","NAME":"Town of Bridgetown","Shape_Leng":11118.2046069,"Shape_Area":3518858.21247}},
{"type":"Feature","geometry":{"type":"Point","coordinates":[-64.73371637990367,45.04720394235916]},"properties":{"FEAT_CODE":"DLBNMU40","FEAT_DESC":"BOUNDARY MUNICIPAL polygon","NAME":"Town of Berwick","Shape_Leng":11201.3747387,"Shape_Area":5811604.7275}},
{"type":"Feature","geometry":{"type":"Point","coordinates":[-65.51049299781539,44.74179932953916]},"properties":{"FEAT_CODE":"DLBNMU40","FEAT_DESC":"BOUNDARY MUNICIPAL polygon","NAME":"Town of Annapolis Royal","Shape_Leng":11827.2792573,"Shape_Area":2084327.68212}}
]}